{"type":"FeatureCollection","totalFeatures":110,"features":[{"type":"Feature","id":"POLIZEIOGD.532695","geometry":{"type":"Point","coordinates":[16.364160330844634,48.2150752347662]},"geometry_name":"SHAPE","properties":{"NAME":"Landespolizeidirektion Wien","ADRESSE":"1., Schottenring 7-9","SE_SDO_ROWID":532695,"SE_ANNO_CAD_DATA":null,"WEBLINK1":"http://www.polizei.gv.at/"}},{"type":"Feature","id":"POLIZEIOGD.532711","geometry":{"type":"Point","coordinates":[16.35727655828703,48.234316227581736]},"geometry_name":"SHAPE","properties":{"NAME":"Landespolizeidirektion Wien Verkehrsamt","ADRESSE":"9., Josef-Holaubek-Platz 1","SE_SDO_ROWID":532711,"SE_ANNO_CAD_DATA":null,"WEBLINK1":"http://www.polizei.gv.at/"}},{"type":"Feature","id":"POLIZEIOGD.532541","geometry":{"type":"Point","coordinates":[16.332393701005167,48.18803782461203]},"geometry_name":"SHAPE","properties":{"NAME":"Polizeiinspektion Sechshauser Straße","ADRESSE":"15., Sechshauser Straße 44","SE_SDO_ROWID":532541,"SE_ANNO_CAD_DATA":null,"WEBLINK1":"http://www.polizei.gv.at/"}},{"type":"Feature","id":"POLIZEIOGD.532542","geometry":{"type":"Point","coordinates":[16.328745765003916,48.18257868038259]},"geometry_name":"SHAPE","properties":{"NAME":"Polizeiinspektion Hufelandgasse","ADRESSE":"12., Hufelandgasse 4","SE_SDO_ROWID":532542,"SE_ANNO_CAD_DATA":null,"WEBLINK1":"http://www.polizei.gv.at/"}},{"type":"Feature","id":"POLIZEIOGD.532544","geometry":{"type":"Point","coordinates":[16.33588703203919,48.21011366747605]},"geometry_name":"SHAPE","properties":{"NAME":"Polizeiinspektion Brunnengasse","ADRESSE":"16., Brunnengasse 40","SE_SDO_ROWID":532544,"SE_ANNO_CAD_DATA":null,"WEBLINK1":"http://www.polizei.gv.at/"}},{"type":"Feature","id":"POLIZEIOGD.532911","geometry":{"type":"Point","coordinates":[16.32439198633503,48.17429103842566]},"geometry_name":"SHAPE","properties":{"NAME":"Polizeiinspektion Hohenbergstraße","ADRESSE":"12., Hohenbergstraße 1","SE_SDO_ROWID":532911,"SE_ANNO_CAD_DATA":null,"WEBLINK1":"http://www.polizei.gv.at/"}},{"type":"Feature","id":"POLIZEIOGD.532912","geometry":{"type":"Point","coordinates":[16.281956403426594,48.2073427789702]},"geometry_name":"SHAPE","properties":{"NAME":"Polizeiinspektion Baumgartner Höhe","ADRESSE":"14., Baumgartner Höhe 2","SE_SDO_ROWID":532912,"SE_ANNO_CAD_DATA":null,"WEBLINK1":"http://www.polizei.gv.at/"}},{"type":"Feature","id":"POLIZEIOGD.532913","geometry":{"type":"Point","coordinates":[16.386044767521412,48.206979467750756]},"geometry_name":"SHAPE","properties":{"NAME":"Polizeiinspektion Wien Mitte","ADRESSE":"3., Invalidenstraße 2","SE_SDO_ROWID":532913,"SE_ANNO_CAD_DATA":null,"WEBLINK1":"http://www.polizei.gv.at/"}},{"type":"Feature","id":"POLIZEIOGD.532932","geometry":{"type":"Point","coordinates":[16.366653305928562,48.2599104918357]},"geometry_name":"SHAPE","properties":{"NAME":"Polizeiinspektion Nußdorfer Platz","ADRESSE":"19., Nußdorfer Platz 1-2","SE_SDO_ROWID":532932,"SE_ANNO_CAD_DATA":null,"WEBLINK1":"http://www.polizei.gv.at/"}},{"type":"Feature","id":"POLIZEIOGD.532933","geometry":{"type":"Point","coordinates":[16.326213527986884,48.16087017267396]},"geometry_name":"SHAPE","properties":{"NAME":"Polizeiinspektion Am Schöpfwerk","ADRESSE":"12., Am Schöpfwerk 29","SE_SDO_ROWID":532933,"SE_ANNO_CAD_DATA":null,"WEBLINK1":"http://www.polizei.gv.at/"}},{"type":"Feature","id":"POLIZEIOGD.532934","geometry":{"type":"Point","coordinates":[16.369073521101704,48.20131271282622]},"geometry_name":"SHAPE","properties":{"NAME":"Polizeiinspektion Kärntnertorpassage (Karlsplatz)","ADRESSE":"1., Kärntnertorpassage","SE_SDO_ROWID":532934,"SE_ANNO_CAD_DATA":null,"WEBLINK1":"http://www.polizei.gv.at/"}},{"type":"Feature","id":"POLIZEIOGD.532935","geometry":{"type":"Point","coordinates":[16.30238546862456,48.18596031474352]},"geometry_name":"SHAPE","properties":{"NAME":"Polizeiinspektion Am Platz","ADRESSE":"13., Am Platz (Schönbrunn, Hiietzinger Tor)","SE_SDO_ROWID":532935,"SE_ANNO_CAD_DATA":null,"WEBLINK1":"http://www.polizei.gv.at/"}},{"type":"Feature","id":"POLIZEIOGD.532545","geometry":{"type":"Point","coordinates":[16.35768946045173,48.18814934090008]},"geometry_name":"SHAPE","properties":{"NAME":"Polizeiinspektion Viktor-Christ-Gasse","ADRESSE":"5., Viktor-Christ-Gasse 19","SE_SDO_ROWID":532545,"SE_ANNO_CAD_DATA":null,"WEBLINK1":"http://www.polizei.gv.at/"}},{"type":"Feature","id":"POLIZEIOGD.532652","geometry":{"type":"Point","coordinates":[16.35590491326174,48.24736003032419]},"geometry_name":"SHAPE","properties":{"NAME":"Polizeiinspektion Hohe Warte","ADRESSE":"19., Hohe Warte 32","SE_SDO_ROWID":532652,"SE_ANNO_CAD_DATA":null,"WEBLINK1":"http://www.polizei.gv.at/"}},{"type":"Feature","id":"POLIZEIOGD.532653","geometry":{"type":"Point","coordinates":[16.36939146914255,48.23397104710073]},"geometry_name":"SHAPE","properties":{"NAME":"Polizeiinspektion Pappenheimgasse","ADRESSE":"20., Pappenheimgasse 33","SE_SDO_ROWID":532653,"SE_ANNO_CAD_DATA":null,"WEBLINK1":"http://www.polizei.gv.at/"}},{"type":"Feature","id":"POLIZEIOGD.532654","geometry":{"type":"Point","coordinates":[16.378233253402197,48.2105703189264]},"geometry_name":"SHAPE","properties":{"NAME":"Polizeiinspektion Laurenzerberg","ADRESSE":"1., Laurenzerberg 2","SE_SDO_ROWID":532654,"SE_ANNO_CAD_DATA":null,"WEBLINK1":"http://www.polizei.gv.at/"}},{"type":"Feature","id":"POLIZEIOGD.532655","geometry":{"type":"Point","coordinates":[16.369658994390015,48.179082553513204]},"geometry_name":"SHAPE","properties":{"NAME":"Polizeiinspektion Van-der-Nüll-Gasse","ADRESSE":"10., Van-der-Nüll-Gasse 11","SE_SDO_ROWID":532655,"SE_ANNO_CAD_DATA":null,"WEBLINK1":"http://www.polizei.gv.at/"}},{"type":"Feature","id":"POLIZEIOGD.532656","geometry":{"type":"Point","coordinates":[16.35306754430465,48.197073891921264]},"geometry_name":"SHAPE","properties":{"NAME":"Polizeiinspektion Kopernikusgasse","ADRESSE":"6., Kopernikusgasse 1","SE_SDO_ROWID":532656,"SE_ANNO_CAD_DATA":null,"WEBLINK1":"http://www.polizei.gv.at/"}},{"type":"Feature","id":"POLIZEIOGD.532657","geometry":{"type":"Point","coordinates":[16.219300029332487,48.2077516929226]},"geometry_name":"SHAPE","properties":{"NAME":"Polizeiinspektion Albert-Schweitzer-Gasse","ADRESSE":"14., Albert-Schweitzer-Gasse 4","SE_SDO_ROWID":532657,"SE_ANNO_CAD_DATA":null,"WEBLINK1":"http://www.polizei.gv.at/"}},{"type":"Feature","id":"POLIZEIOGD.532658","geometry":{"type":"Point","coordinates":[16.372217991841087,48.20958782280669]},"geometry_name":"SHAPE","properties":{"NAME":"Polizeiinspektion Brandstätte","ADRESSE":"1., Brandstätte 4","SE_SDO_ROWID":532658,"SE_ANNO_CAD_DATA":null,"WEBLINK1":"http://www.polizei.gv.at/"}},{"type":"Feature","id":"POLIZEIOGD.532660","geometry":{"type":"Point","coordinates":[16.473833077685956,48.21799742865064]},"geometry_name":"SHAPE","properties":{"NAME":"Polizeiinspektion Langobardenstraße","ADRESSE":"22., Langobardenstraße 128","SE_SDO_ROWID":532660,"SE_ANNO_CAD_DATA":null,"WEBLINK1":"http://www.polizei.gv.at/"}},{"type":"Feature","id":"POLIZEIOGD.532661","geometry":{"type":"Point","coordinates":[16.447495545559217,48.270505463511086]},"geometry_name":"SHAPE","properties":{"NAME":"Polizeiinspektion Dopschstraße (Großfeldsiedlung)","ADRESSE":"21., Dopschstraße 29","SE_SDO_ROWID":532661,"SE_ANNO_CAD_DATA":null,"WEBLINK1":"http://www.polizei.gv.at/"}},{"type":"Feature","id":"POLIZEIOGD.532662","geometry":{"type":"Point","coordinates":[16.33241062497966,48.197458626240156]},"geometry_name":"SHAPE","properties":{"NAME":"Polizeiinspektion Tannengasse","ADRESSE":"15., Tannengasse 6-10","SE_SDO_ROWID":532662,"SE_ANNO_CAD_DATA":null,"WEBLINK1":"http://www.polizei.gv.at/"}},{"type":"Feature","id":"POLIZEIOGD.532663","geometry":{"type":"Point","coordinates":[16.40541959595258,48.272997474955986]},"geometry_name":"SHAPE","properties":{"NAME":"Polizeiinspektion Trillergasse","ADRESSE":"21., Trillergasse 6","SE_SDO_ROWID":532663,"SE_ANNO_CAD_DATA":null,"WEBLINK1":"http://www.polizei.gv.at/"}},{"type":"Feature","id":"POLIZEIOGD.532664","geometry":{"type":"Point","coordinates":[16.35730542915332,48.22702714594988]},"geometry_name":"SHAPE","properties":{"NAME":"Polizeiinspektion Lichtentaler Gasse","ADRESSE":"9., Lichtentaler Gasse 4","SE_SDO_ROWID":532664,"SE_ANNO_CAD_DATA":null,"WEBLINK1":"http://www.polizei.gv.at/"}},{"type":"Feature","id":"POLIZEIOGD.532665","geometry":{"type":"Point","coordinates":[16.334159071195785,48.15001445442791]},"geometry_name":"SHAPE","properties":{"NAME":"Polizeiinspektion Purkytgasse","ADRESSE":"23., Purkytgasse 1","SE_SDO_ROWID":532665,"SE_ANNO_CAD_DATA":null,"WEBLINK1":"http://www.polizei.gv.at/"}},{"type":"Feature","id":"POLIZEIOGD.532666","geometry":{"type":"Point","coordinates":[16.424497295149912,48.1658403665493]},"geometry_name":"SHAPE","properties":{"NAME":"Polizeiinspektion Simmeringer Hauptstraße","ADRESSE":"11., Simmeringer Hauptstraße 164","SE_SDO_ROWID":532666,"SE_ANNO_CAD_DATA":null,"WEBLINK1":"http://www.polizei.gv.at/"}},{"type":"Feature","id":"POLIZEIOGD.532667","geometry":{"type":"Point","coordinates":[16.355372591691523,48.21597563552399]},"geometry_name":"SHAPE","properties":{"NAME":"Polizeiinspektion Otto-Wagner-Platz","ADRESSE":"9., Otto-Wagner-Platz 4-4A","SE_SDO_ROWID":532667,"SE_ANNO_CAD_DATA":null,"WEBLINK1":"http://www.polizei.gv.at/"}},{"type":"Feature","id":"POLIZEIOGD.532668","geometry":{"type":"Point","coordinates":[16.454841778572217,48.26037535366768]},"geometry_name":"SHAPE","properties":{"NAME":"Polizeiinspektion Rennbahnweg","ADRESSE":"22., Rennbahnweg 27/3","SE_SDO_ROWID":532668,"SE_ANNO_CAD_DATA":null,"WEBLINK1":"http://www.polizei.gv.at/"}},{"type":"Feature","id":"POLIZEIOGD.532670","geometry":{"type":"Point","coordinates":[16.340698409033724,48.21363249368135]},"geometry_name":"SHAPE","properties":{"NAME":"Polizeiinspektion Hernalser Gürtel","ADRESSE":"8., Hernalser Gürtel 6-12","SE_SDO_ROWID":532670,"SE_ANNO_CAD_DATA":null,"WEBLINK1":"http://www.polizei.gv.at/"}},{"type":"Feature","id":"POLIZEIOGD.532671","geometry":{"type":"Point","coordinates":[16.382947971079062,48.209930426751036]},"geometry_name":"SHAPE","properties":{"NAME":"Polizeiinspektion Stubenring","ADRESSE":"1., Stubenring 1","SE_SDO_ROWID":532671,"SE_ANNO_CAD_DATA":null,"WEBLINK1":"http://www.polizei.gv.at/"}},{"type":"Feature","id":"POLIZEIOGD.532673","geometry":{"type":"Point","coordinates":[16.302800316302108,48.19864127342943]},"geometry_name":"SHAPE","properties":{"NAME":"Polizeiinspektion Leyserstraße","ADRESSE":"14., Leyserstraße 2","SE_SDO_ROWID":532673,"SE_ANNO_CAD_DATA":null,"WEBLINK1":"http://www.polizei.gv.at/"}},{"type":"Feature","id":"POLIZEIOGD.532674","geometry":{"type":"Point","coordinates":[16.338457460173,48.184452534025525]},"geometry_name":"SHAPE","properties":{"NAME":"Polizeiinspektion Arndtstraße","ADRESSE":"12., Arndtstraße 40","SE_SDO_ROWID":532674,"SE_ANNO_CAD_DATA":null,"WEBLINK1":"http://www.polizei.gv.at/"}},{"type":"Feature","id":"POLIZEIOGD.532675","geometry":{"type":"Point","coordinates":[16.31723331564662,48.224515586177006]},"geometry_name":"SHAPE","properties":{"NAME":"Polizeiinspektion Halirschgasse","ADRESSE":"17., Halirschgasse 16","SE_SDO_ROWID":532675,"SE_ANNO_CAD_DATA":null,"WEBLINK1":"http://www.polizei.gv.at/"}},{"type":"Feature","id":"POLIZEIOGD.532676","geometry":{"type":"Point","coordinates":[16.408890557055898,48.22332731761859]},"geometry_name":"SHAPE","properties":{"NAME":"Polizeiinspektion Handelskai","ADRESSE":"2., Handelskai 267","SE_SDO_ROWID":532676,"SE_ANNO_CAD_DATA":null,"WEBLINK1":"http://www.polizei.gv.at/"}},{"type":"Feature","id":"POLIZEIOGD.532677","geometry":{"type":"Point","coordinates":[16.371157919740288,48.19497869306834]},"geometry_name":"SHAPE","properties":{"NAME":"Polizeiinspektion Taubstummengasse","ADRESSE":"4., Taubstummengasse 11","SE_SDO_ROWID":532677,"SE_ANNO_CAD_DATA":null,"WEBLINK1":"http://www.polizei.gv.at/"}},{"type":"Feature","id":"POLIZEIOGD.532679","geometry":{"type":"Point","coordinates":[16.41504118340539,48.229742152582006]},"geometry_name":"SHAPE","properties":{"NAME":"Polizeiinspektion Rudolf-Nurejew-Promenade","ADRESSE":"22., Rudolf-Nurejew-Promenade 1","SE_SDO_ROWID":532679,"SE_ANNO_CAD_DATA":null,"WEBLINK1":"http://www.polizei.gv.at/"}},{"type":"Feature","id":"POLIZEIOGD.532682","geometry":{"type":"Point","coordinates":[16.393668387076342,48.19655696845571]},"geometry_name":"SHAPE","properties":{"NAME":"Polizeiinspektion Juchgasse","ADRESSE":"3., Juchgasse 19","SE_SDO_ROWID":532682,"SE_ANNO_CAD_DATA":null,"WEBLINK1":"http://www.polizei.gv.at/"}},{"type":"Feature","id":"POLIZEIOGD.532683","geometry":{"type":"Point","coordinates":[16.446849406347397,48.22759359885721]},"geometry_name":"SHAPE","properties":{"NAME":"Polizeiinspektion Lange Allee","ADRESSE":"22., Lange Allee 13","SE_SDO_ROWID":532683,"SE_ANNO_CAD_DATA":null,"WEBLINK1":"http://www.polizei.gv.at/"}},{"type":"Feature","id":"POLIZEIOGD.532684","geometry":{"type":"Point","coordinates":[16.358032389258014,48.206301588876435]},"geometry_name":"SHAPE","properties":{"NAME":"Polizeiinspektion Schmerlingplatz","ADRESSE":"1., Schmerlingplatz 10-11","SE_SDO_ROWID":532684,"SE_ANNO_CAD_DATA":null,"WEBLINK1":"http://www.polizei.gv.at/"}},{"type":"Feature","id":"POLIZEIOGD.532685","geometry":{"type":"Point","coordinates":[16.340967836346515,48.221101483920435]},"geometry_name":"SHAPE","properties":{"NAME":"Polizeiinspektion Martinstraße","ADRESSE":"18., Martinstraße 40","SE_SDO_ROWID":532685,"SE_ANNO_CAD_DATA":null,"WEBLINK1":"http://www.polizei.gv.at/"}},{"type":"Feature","id":"POLIZEIOGD.532686","geometry":{"type":"Point","coordinates":[16.405404387418915,48.21763611167676]},"geometry_name":"SHAPE","properties":{"NAME":"Polizeiinspektion Ausstellungsstraße","ADRESSE":"2., Ausstellungsstraße 44","SE_SDO_ROWID":532686,"SE_ANNO_CAD_DATA":null,"WEBLINK1":"http://www.polizei.gv.at/"}},{"type":"Feature","id":"POLIZEIOGD.532687","geometry":{"type":"Point","coordinates":[16.404345725628414,48.196274616630845]},"geometry_name":"SHAPE","properties":{"NAME":"Polizeiinspektion Fiakerplatz","ADRESSE":"3., Fiakerplatz 4","SE_SDO_ROWID":532687,"SE_ANNO_CAD_DATA":null,"WEBLINK1":"http://www.polizei.gv.at/"}},{"type":"Feature","id":"POLIZEIOGD.532688","geometry":{"type":"Point","coordinates":[16.416770388956433,48.29370995147974]},"geometry_name":"SHAPE","properties":{"NAME":"Polizeiinspektion Kummergasse","ADRESSE":"21., Kummergasse 7","SE_SDO_ROWID":532688,"SE_ANNO_CAD_DATA":null,"WEBLINK1":"http://www.polizei.gv.at/"}},{"type":"Feature","id":"POLIZEIOGD.532689","geometry":{"type":"Point","coordinates":[16.259602048451292,48.20164236623047]},"geometry_name":"SHAPE","properties":{"NAME":"Polizeiinspektion Linzer Straße","ADRESSE":"14., Linzer Straße 395","SE_SDO_ROWID":532689,"SE_ANNO_CAD_DATA":null,"WEBLINK1":"http://www.polizei.gv.at/"}},{"type":"Feature","id":"POLIZEIOGD.532692","geometry":{"type":"Point","coordinates":[16.32800474156539,48.24211663073]},"geometry_name":"SHAPE","properties":{"NAME":"Polizeiinspektion Krottenbachstraße","ADRESSE":"19., Krottenbachstraße 106","SE_SDO_ROWID":532692,"SE_ANNO_CAD_DATA":null,"WEBLINK1":"http://www.polizei.gv.at/"}},{"type":"Feature","id":"POLIZEIOGD.532693","geometry":{"type":"Point","coordinates":[16.347962243890052,48.21041388126578]},"geometry_name":"SHAPE","properties":{"NAME":"Polizeiinspektion Fuhrmannsgasse","ADRESSE":"8., Fuhrmannsgasse 5","SE_SDO_ROWID":532693,"SE_ANNO_CAD_DATA":null,"WEBLINK1":"http://www.polizei.gv.at/"}},{"type":"Feature","id":"POLIZEIOGD.532694","geometry":{"type":"Point","coordinates":[16.382758473079136,48.163822447394125]},"geometry_name":"SHAPE","properties":{"NAME":"Polizeiinspektion Favoritenstraße","ADRESSE":"10., Favoritenstraße 211","SE_SDO_ROWID":532694,"SE_ANNO_CAD_DATA":null,"WEBLINK1":"http://www.polizei.gv.at/"}},{"type":"Feature","id":"POLIZEIOGD.532696","geometry":{"type":"Point","coordinates":[16.319388983223625,48.23816900838161]},"geometry_name":"SHAPE","properties":{"NAME":"Polizeiinspektion Gersthofer Straße","ADRESSE":"18., Gersthofer Straße 135","SE_SDO_ROWID":532696,"SE_ANNO_CAD_DATA":null,"WEBLINK1":"http://www.polizei.gv.at/"}},{"type":"Feature","id":"POLIZEIOGD.532697","geometry":{"type":"Point","coordinates":[16.31354518344781,48.149980160165896]},"geometry_name":"SHAPE","properties":{"NAME":"Polizeiinspektion Anton-Baumgartner Straße","ADRESSE":"23., Anton-Baumgartner-Straße 125","SE_SDO_ROWID":532697,"SE_ANNO_CAD_DATA":null,"WEBLINK1":"http://www.polizei.gv.at/"}},{"type":"Feature","id":"POLIZEIOGD.532698","geometry":{"type":"Point","coordinates":[16.367441502201746,48.210548195294656]},"geometry_name":"SHAPE","properties":{"NAME":"Polizeiinspektion Am Hof","ADRESSE":"1., Am Hof 3-4","SE_SDO_ROWID":532698,"SE_ANNO_CAD_DATA":null,"WEBLINK1":"http://www.polizei.gv.at/"}},{"type":"Feature","id":"POLIZEIOGD.532699","geometry":{"type":"Point","coordinates":[16.33900551264115,48.201535646026194]},"geometry_name":"SHAPE","properties":{"NAME":"Polizeiinspektion Urban-Loritz-Platz","ADRESSE":"7., Urban-Loritz-Platz 7","SE_SDO_ROWID":532699,"SE_ANNO_CAD_DATA":null,"WEBLINK1":"http://www.polizei.gv.at/"}},{"type":"Feature","id":"POLIZEIOGD.532700","geometry":{"type":"Point","coordinates":[16.39099080197329,48.21842792651906]},"geometry_name":"SHAPE","properties":{"NAME":"Polizeiinspektion Praterstern","ADRESSE":"2., Praterstern","SE_SDO_ROWID":532700,"SE_ANNO_CAD_DATA":null,"WEBLINK1":"http://www.polizei.gv.at/"}},{"type":"Feature","id":"POLIZEIOGD.532702","geometry":{"type":"Point","coordinates":[16.36729922945971,48.20400195548838]},"geometry_name":"SHAPE","properties":{"NAME":"Polizeiinspektion Goethegasse","ADRESSE":"1., Goethegasse 1","SE_SDO_ROWID":532702,"SE_ANNO_CAD_DATA":null,"WEBLINK1":"http://www.polizei.gv.at/"}},{"type":"Feature","id":"POLIZEIOGD.532703","geometry":{"type":"Point","coordinates":[16.385297974835712,48.152771796976744]},"geometry_name":"SHAPE","properties":{"NAME":"Polizeiinspektion Ada-Christen-Gasse","ADRESSE":"10., Ada-Christen-Gasse 2","SE_SDO_ROWID":532703,"SE_ANNO_CAD_DATA":null,"WEBLINK1":"http://www.polizei.gv.at/"}},{"type":"Feature","id":"POLIZEIOGD.532704","geometry":{"type":"Point","coordinates":[16.36716945352828,48.18808754076806]},"geometry_name":"SHAPE","properties":{"NAME":"Polizeiinspektion Rainergasse","ADRESSE":"4., Rainergasse 21","SE_SDO_ROWID":532704,"SE_ANNO_CAD_DATA":null,"WEBLINK1":"http://www.polizei.gv.at/"}},{"type":"Feature","id":"POLIZEIOGD.532705","geometry":{"type":"Point","coordinates":[16.318547849906967,48.21369473801383]},"geometry_name":"SHAPE","properties":{"NAME":"Polizeiinspektion Wattgasse","ADRESSE":"16., Wattgasse 15","SE_SDO_ROWID":532705,"SE_ANNO_CAD_DATA":null,"WEBLINK1":"http://www.polizei.gv.at/"}},{"type":"Feature","id":"POLIZEIOGD.532706","geometry":{"type":"Point","coordinates":[16.384793211063442,48.23506885439811]},"geometry_name":"SHAPE","properties":{"NAME":"Polizeiinspektion Pasettistraße","ADRESSE":"20., Pasettistraße 81-83","SE_SDO_ROWID":532706,"SE_ANNO_CAD_DATA":null,"WEBLINK1":"http://www.polizei.gv.at/"}},{"type":"Feature","id":"POLIZEIOGD.532707","geometry":{"type":"Point","coordinates":[16.528201857144666,48.217881638548484]},"geometry_name":"SHAPE","properties":{"NAME":"Polizeiinspektion Rosenbergstraße","ADRESSE":"22., Rosenbergstraße 37","SE_SDO_ROWID":532707,"SE_ANNO_CAD_DATA":null,"WEBLINK1":"http://www.polizei.gv.at/"}},{"type":"Feature","id":"POLIZEIOGD.532708","geometry":{"type":"Point","coordinates":[16.34342947841161,48.24509630335921]},"geometry_name":"SHAPE","properties":{"NAME":"Polizeiinspektion Billrothstraße","ADRESSE":"19., Billrothstraße 79A","SE_SDO_ROWID":532708,"SE_ANNO_CAD_DATA":null,"WEBLINK1":"http://www.polizei.gv.at/"}},{"type":"Feature","id":"POLIZEIOGD.532709","geometry":{"type":"Point","coordinates":[16.469774584648878,48.15277173334041]},"geometry_name":"SHAPE","properties":{"NAME":"Polizeiinspektion Sängergasse","ADRESSE":"11., Sängergasse 11","SE_SDO_ROWID":532709,"SE_ANNO_CAD_DATA":null,"WEBLINK1":"http://www.polizei.gv.at/"}},{"type":"Feature","id":"POLIZEIOGD.532710","geometry":{"type":"Point","coordinates":[16.361272722302505,48.22612635480198]},"geometry_name":"SHAPE","properties":{"NAME":"Polizeiinspektion Julius-Tandler-Platz","ADRESSE":"9., Julius-Tandler-Platz 3","SE_SDO_ROWID":532710,"SE_ANNO_CAD_DATA":null,"WEBLINK1":"http://www.polizei.gv.at/"}},{"type":"Feature","id":"POLIZEIOGD.532712","geometry":{"type":"Point","coordinates":[16.34626266987875,48.20290884981358]},"geometry_name":"SHAPE","properties":{"NAME":"Polizeiinspektion Kandlgasse","ADRESSE":"7., Kandlgasse 4","SE_SDO_ROWID":532712,"SE_ANNO_CAD_DATA":null,"WEBLINK1":"http://www.polizei.gv.at/"}},{"type":"Feature","id":"POLIZEIOGD.532713","geometry":{"type":"Point","coordinates":[16.41324324612067,48.17517576538795]},"geometry_name":"SHAPE","properties":{"NAME":"Polizeiinspektion Sedlitzkygasse","ADRESSE":"11., Sedlitzkygasse 27","SE_SDO_ROWID":532713,"SE_ANNO_CAD_DATA":null,"WEBLINK1":"http://www.polizei.gv.at/"}},{"type":"Feature","id":"POLIZEIOGD.532714","geometry":{"type":"Point","coordinates":[16.280907917985726,48.13549364087686]},"geometry_name":"SHAPE","properties":{"NAME":"Polizeiinspektion Lehmanngasse","ADRESSE":"23., Lehmanngasse 3A","SE_SDO_ROWID":532714,"SE_ANNO_CAD_DATA":null,"WEBLINK1":"http://www.polizei.gv.at/"}},{"type":"Feature","id":"POLIZEIOGD.532715","geometry":{"type":"Point","coordinates":[16.36377099232943,48.21490511563443]},"geometry_name":"SHAPE","properties":{"NAME":"Polizeiinspektion Schottenring","ADRESSE":"1., Schottenring 7-9","SE_SDO_ROWID":532715,"SE_ANNO_CAD_DATA":null,"WEBLINK1":"http://www.polizei.gv.at/"}},{"type":"Feature","id":"POLIZEIOGD.532716","geometry":{"type":"Point","coordinates":[16.3160598793254,48.13173685126423]},"geometry_name":"SHAPE","properties":{"NAME":"Polizeiinspektion Karl-Tornay-Gasse","ADRESSE":"23., Karl-Tornay-Gasse 37-39","SE_SDO_ROWID":532716,"SE_ANNO_CAD_DATA":null,"WEBLINK1":"http://www.polizei.gv.at/"}},{"type":"Feature","id":"POLIZEIOGD.532717","geometry":{"type":"Point","coordinates":[16.469881563038793,48.23495436497951]},"geometry_name":"SHAPE","properties":{"NAME":"Polizeiinspektion Quadenstraße","ADRESSE":"22., Quadenstraße 8","SE_SDO_ROWID":532717,"SE_ANNO_CAD_DATA":null,"WEBLINK1":"http://www.polizei.gv.at/"}},{"type":"Feature","id":"POLIZEIOGD.532718","geometry":{"type":"Point","coordinates":[16.344227479623317,48.194311880633215]},"geometry_name":"SHAPE","properties":{"NAME":"Polizeiinspektion Stumpergasse","ADRESSE":"6., Stumpergasse 42","SE_SDO_ROWID":532718,"SE_ANNO_CAD_DATA":null,"WEBLINK1":"http://www.polizei.gv.at/"}},{"type":"Feature","id":"POLIZEIOGD.532720","geometry":{"type":"Point","coordinates":[16.306437096128807,48.213927256889725]},"geometry_name":"SHAPE","properties":{"NAME":"Polizeiinspektion Maroltingergasse","ADRESSE":"16., Maroltingergasse 79","SE_SDO_ROWID":532720,"SE_ANNO_CAD_DATA":null,"WEBLINK1":"http://www.polizei.gv.at/"}},{"type":"Feature","id":"POLIZEIOGD.532721","geometry":{"type":"Point","coordinates":[16.464341285530942,48.159904716089386]},"geometry_name":"SHAPE","properties":{"NAME":"Polizeiinspektion Kaiser-Ebersdorfer Straße","ADRESSE":"11., Kaiser-Ebersdorfer Straße 290","SE_SDO_ROWID":532721,"SE_ANNO_CAD_DATA":null,"WEBLINK1":"http://www.polizei.gv.at/"}},{"type":"Feature","id":"POLIZEIOGD.532722","geometry":{"type":"Point","coordinates":[16.39728764472064,48.26031581677159]},"geometry_name":"SHAPE","properties":{"NAME":"Polizeiinspektion Hermann-Bahr-Straße","ADRESSE":"21., Hermann-Bahr-Straße 3","SE_SDO_ROWID":532722,"SE_ANNO_CAD_DATA":null,"WEBLINK1":"http://www.polizei.gv.at/"}},{"type":"Feature","id":"POLIZEIOGD.532723","geometry":{"type":"Point","coordinates":[16.320454941722584,48.19823025812394]},"geometry_name":"SHAPE","properties":{"NAME":"Polizeiinspektion Wurmsergasse","ADRESSE":"15., Wurmsergasse 35","SE_SDO_ROWID":532723,"SE_ANNO_CAD_DATA":null,"WEBLINK1":"http://www.polizei.gv.at/"}},{"type":"Feature","id":"POLIZEIOGD.532724","geometry":{"type":"Point","coordinates":[16.377032990979004,48.17943738107042]},"geometry_name":"SHAPE","properties":{"NAME":"Polizeiinspektion Keplergasse","ADRESSE":"10., Keplergasse 10","SE_SDO_ROWID":532724,"SE_ANNO_CAD_DATA":null,"WEBLINK1":"http://www.polizei.gv.at/"}},{"type":"Feature","id":"POLIZEIOGD.532725","geometry":{"type":"Point","coordinates":[16.356523551522347,48.223653102863985]},"geometry_name":"SHAPE","properties":{"NAME":"Polizeiinspektion Boltzmanngasse","ADRESSE":"9., Boltzmanngasse 20","SE_SDO_ROWID":532725,"SE_ANNO_CAD_DATA":null,"WEBLINK1":"http://www.polizei.gv.at/"}},{"type":"Feature","id":"POLIZEIOGD.532726","geometry":{"type":"Point","coordinates":[16.37881769587403,48.20001489551002]},"geometry_name":"SHAPE","properties":{"NAME":"Polizeiinspektion Marokkanergasse","ADRESSE":"3., Marokkanergasse 4","SE_SDO_ROWID":532726,"SE_ANNO_CAD_DATA":null,"WEBLINK1":"http://www.polizei.gv.at/"}},{"type":"Feature","id":"POLIZEIOGD.532728","geometry":{"type":"Point","coordinates":[16.277302177499944,48.18968814303218]},"geometry_name":"SHAPE","properties":{"NAME":"Polizeiinspektion Preindlgasse","ADRESSE":"13., Preindlgasse 21-23","SE_SDO_ROWID":532728,"SE_ANNO_CAD_DATA":null,"WEBLINK1":"http://www.polizei.gv.at/"}},{"type":"Feature","id":"POLIZEIOGD.532729","geometry":{"type":"Point","coordinates":[16.333374561584808,48.20653414519167]},"geometry_name":"SHAPE","properties":{"NAME":"Polizeiinspektion Koppstraße","ADRESSE":"16., Koppstraße 9-11","SE_SDO_ROWID":532729,"SE_ANNO_CAD_DATA":null,"WEBLINK1":"http://www.polizei.gv.at/"}},{"type":"Feature","id":"POLIZEIOGD.532730","geometry":{"type":"Point","coordinates":[16.368195779137377,48.21734772126813]},"geometry_name":"SHAPE","properties":{"NAME":"Polizeiinspektion Deutschmeisterplatz","ADRESSE":"1., Deutschmeisterplatz 3","SE_SDO_ROWID":532730,"SE_ANNO_CAD_DATA":null,"WEBLINK1":"http://www.polizei.gv.at/"}},{"type":"Feature","id":"POLIZEIOGD.532731","geometry":{"type":"Point","coordinates":[16.37640354561627,48.2196930140366]},"geometry_name":"SHAPE","properties":{"NAME":"Polizeiinspektion Leopoldsgasse","ADRESSE":"2., Leopoldsgasse 18","SE_SDO_ROWID":532731,"SE_ANNO_CAD_DATA":null,"WEBLINK1":"http://www.polizei.gv.at/"}},{"type":"Feature","id":"POLIZEIOGD.532732","geometry":{"type":"Point","coordinates":[16.361756956440306,48.159547726423085]},"geometry_name":"SHAPE","properties":{"NAME":"Polizeiinspektion Sibeliusstraße","ADRESSE":"10., Sibeliusstraße 8","SE_SDO_ROWID":532732,"SE_ANNO_CAD_DATA":null,"WEBLINK1":"http://www.polizei.gv.at/"}},{"type":"Feature","id":"POLIZEIOGD.532734","geometry":{"type":"Point","coordinates":[16.334344622221966,48.22743889760684]},"geometry_name":"SHAPE","properties":{"NAME":"Polizeiinspektion Schulgasse","ADRESSE":"18., Schulgasse 88","SE_SDO_ROWID":532734,"SE_ANNO_CAD_DATA":null,"WEBLINK1":"http://www.polizei.gv.at/"}},{"type":"Feature","id":"POLIZEIOGD.532735","geometry":{"type":"Point","coordinates":[16.331227804144277,48.219505921790834]},"geometry_name":"SHAPE","properties":{"NAME":"Polizeiinspektion Rötzergasse","ADRESSE":"17., Rötzergasse 24-26","SE_SDO_ROWID":532735,"SE_ANNO_CAD_DATA":null,"WEBLINK1":"http://www.polizei.gv.at/"}},{"type":"Feature","id":"POLIZEIOGD.532736","geometry":{"type":"Point","coordinates":[16.292983629544562,48.183133100602085]},"geometry_name":"SHAPE","properties":{"NAME":"Polizeiinspektion Lainzer Straße","ADRESSE":"13., Lainzer Straße 49-51","SE_SDO_ROWID":532736,"SE_ANNO_CAD_DATA":null,"WEBLINK1":"http://www.polizei.gv.at/"}},{"type":"Feature","id":"POLIZEIOGD.532737","geometry":{"type":"Point","coordinates":[16.3798466497137,48.24355046566254]},"geometry_name":"SHAPE","properties":{"NAME":"Polizeiinspektion Vorgartenstraße","ADRESSE":"20., Vorgartenstraße 27","SE_SDO_ROWID":532737,"SE_ANNO_CAD_DATA":null,"WEBLINK1":"http://www.polizei.gv.at/"}},{"type":"Feature","id":"POLIZEIOGD.532738","geometry":{"type":"Point","coordinates":[16.385158038383864,48.213566162780836]},"geometry_name":"SHAPE","properties":{"NAME":"Polizeiinspektion Tempelgasse","ADRESSE":"2., Tempelgasse 5A","SE_SDO_ROWID":532738,"SE_ANNO_CAD_DATA":null,"WEBLINK1":"http://www.polizei.gv.at/"}},{"type":"Feature","id":"POLIZEIOGD.532740","geometry":{"type":"Point","coordinates":[16.43625137411287,48.24392417251856]},"geometry_name":"SHAPE","properties":{"NAME":"Polizeiinspektion Wagramer Straße","ADRESSE":"22., Wagramer Straße 89","SE_SDO_ROWID":532740,"SE_ANNO_CAD_DATA":null,"WEBLINK1":"http://www.polizei.gv.at/"}},{"type":"Feature","id":"POLIZEIOGD.532742","geometry":{"type":"Point","coordinates":[16.386393183680415,48.28741250451846]},"geometry_name":"SHAPE","properties":{"NAME":"Polizeiinspektion Berlagasse","ADRESSE":"21., Berlagasse 1","SE_SDO_ROWID":532742,"SE_ANNO_CAD_DATA":null,"WEBLINK1":"http://www.polizei.gv.at/"}},{"type":"Feature","id":"POLIZEIOGD.532743","geometry":{"type":"Point","coordinates":[16.42004083602703,48.2534907572401]},"geometry_name":"SHAPE","properties":{"NAME":"Polizeiinspektion Donaufelder Straße","ADRESSE":"21., Donaufelder Straße 99","SE_SDO_ROWID":532743,"SE_ANNO_CAD_DATA":null,"WEBLINK1":"http://www.polizei.gv.at/"}},{"type":"Feature","id":"POLIZEIOGD.532744","geometry":{"type":"Point","coordinates":[16.36321962057322,48.16970168156065]},"geometry_name":"SHAPE","properties":{"NAME":"Polizeiinspektion Zohmanngasse","ADRESSE":"10., Zohmanngasse 10","SE_SDO_ROWID":532744,"SE_ANNO_CAD_DATA":null,"WEBLINK1":"http://www.polizei.gv.at/"}},{"type":"Feature","id":"POLIZEIOGD.532745","geometry":{"type":"Point","coordinates":[16.355062488272612,48.20205139128985]},"geometry_name":"SHAPE","properties":{"NAME":"Polizeiinspektion Stiftgasse","ADRESSE":"7., Stiftgasse 2A","SE_SDO_ROWID":532745,"SE_ANNO_CAD_DATA":null,"WEBLINK1":"http://www.polizei.gv.at/"}},{"type":"Feature","id":"POLIZEIOGD.532746","geometry":{"type":"Point","coordinates":[16.284899318627335,48.16937095838025]},"geometry_name":"SHAPE","properties":{"NAME":"Polizeiinspektion Speisinger Straße","ADRESSE":"13., Speisinger Straße 46-48","SE_SDO_ROWID":532746,"SE_ANNO_CAD_DATA":null,"WEBLINK1":"http://www.polizei.gv.at/"}},{"type":"Feature","id":"POLIZEIOGD.532747","geometry":{"type":"Point","coordinates":[16.446962762892564,48.273865783593244]},"geometry_name":"SHAPE","properties":{"NAME":"Polizeiinspektion Kürschnergasse","ADRESSE":"21., Kürschnergasse 18C","SE_SDO_ROWID":532747,"SE_ANNO_CAD_DATA":null,"WEBLINK1":"http://www.polizei.gv.at/"}},{"type":"Feature","id":"POLIZEIOGD.532748","geometry":{"type":"Point","coordinates":[16.41133268770879,48.19730756486758]},"geometry_name":"SHAPE","properties":{"NAME":"Polizeiinspektion Schüttelstraße","ADRESSE":"2., Schüttelstraße 113","SE_SDO_ROWID":532748,"SE_ANNO_CAD_DATA":null,"WEBLINK1":"http://www.polizei.gv.at/"}},{"type":"Feature","id":"POLIZEIOGD.532749","geometry":{"type":"Point","coordinates":[16.39693015592111,48.138086419537665]},"geometry_name":"SHAPE","properties":{"NAME":"Polizeiinspektion Oberlaaer Straße","ADRESSE":"10., Oberlaaer Straße 87","SE_SDO_ROWID":532749,"SE_ANNO_CAD_DATA":null,"WEBLINK1":"http://www.polizei.gv.at/"}},{"type":"Feature","id":"POLIZEIOGD.532733","geometry":{"type":"Point","coordinates":[16.35708907878944,48.19268562492988]},"geometry_name":"SHAPE","properties":{"NAME":"Polizeiinspektion Schönbrunner Straße","ADRESSE":"5., Schönbrunner Straße 34","SE_SDO_ROWID":532733,"SE_ANNO_CAD_DATA":null,"WEBLINK1":"http://www.polizei.gv.at/"}},{"type":"Feature","id":"POLIZEIOGD.532543","geometry":{"type":"Point","coordinates":[16.347956544919978,48.21049750937645]},"geometry_name":"SHAPE","properties":{"NAME":"Stadtpolizeikommando Josefstadt (7.,8.u.9.Bezirk)","ADRESSE":"8., Fuhrmannsgasse 5","SE_SDO_ROWID":532543,"SE_ANNO_CAD_DATA":null,"WEBLINK1":"http://www.polizei.gv.at/"}},{"type":"Feature","id":"POLIZEIOGD.532659","geometry":{"type":"Point","coordinates":[16.318556410861145,48.21360675914835]},"geometry_name":"SHAPE","properties":{"NAME":"Stadtpolizeikommando Ottakring (16.u.17.Bezirk)","ADRESSE":"16., Wattgasse 15","SE_SDO_ROWID":532659,"SE_ANNO_CAD_DATA":null,"WEBLINK1":"http://www.polizei.gv.at/"}},{"type":"Feature","id":"POLIZEIOGD.532669","geometry":{"type":"Point","coordinates":[16.436352420534522,48.24387651080307]},"geometry_name":"SHAPE","properties":{"NAME":"Stadtpolizeikommando Donaustadt (22.Bezirk)","ADRESSE":"22., Wagramer Straße 89","SE_SDO_ROWID":532669,"SE_ANNO_CAD_DATA":null,"WEBLINK1":"http://www.polizei.gv.at/"}},{"type":"Feature","id":"POLIZEIOGD.532672","geometry":{"type":"Point","coordinates":[16.35753382863888,48.18808838713953]},"geometry_name":"SHAPE","properties":{"NAME":"Stadtpolizeikommando Margareten (4.,5.u.6.Bezirk)","ADRESSE":"5., Viktor-Christ-Gasse 19","SE_SDO_ROWID":532672,"SE_ANNO_CAD_DATA":null,"WEBLINK1":"http://www.polizei.gv.at/"}},{"type":"Feature","id":"POLIZEIOGD.532678","geometry":{"type":"Point","coordinates":[16.413214916968453,48.17538253875128]},"geometry_name":"SHAPE","properties":{"NAME":"Stadtpolizeikommando Simmering (11.Bezirk)","ADRESSE":"11., Enkplatz 3","SE_SDO_ROWID":532678,"SE_ANNO_CAD_DATA":null,"WEBLINK1":"http://www.polizei.gv.at/"}},{"type":"Feature","id":"POLIZEIOGD.532680","geometry":{"type":"Point","coordinates":[16.355908572892922,48.2475616013807]},"geometry_name":"SHAPE","properties":{"NAME":"Stadtpolizeikommando Döbling (18.u.19.Bezirk)","ADRESSE":"19., Hohe Warte 32","SE_SDO_ROWID":532680,"SE_ANNO_CAD_DATA":null,"WEBLINK1":"http://www.polizei.gv.at/"}},{"type":"Feature","id":"POLIZEIOGD.532681","geometry":{"type":"Point","coordinates":[16.368293813523305,48.217393504988266]},"geometry_name":"SHAPE","properties":{"NAME":"Stadtpolizeikommando Innere Stadt (1.Bezirk)","ADRESSE":"1., Deutschmeisterplatz 3","SE_SDO_ROWID":532681,"SE_ANNO_CAD_DATA":null,"WEBLINK1":"http://www.polizei.gv.at/"}},{"type":"Feature","id":"POLIZEIOGD.532690","geometry":{"type":"Point","coordinates":[16.281335182369993,48.1353486034205]},"geometry_name":"SHAPE","properties":{"NAME":"Stadtpolizeikommando Liesing (23.Bezirk)","ADRESSE":"23., Lehmanngasse 3A","SE_SDO_ROWID":532690,"SE_ANNO_CAD_DATA":null,"WEBLINK1":"http://www.polizei.gv.at/"}},{"type":"Feature","id":"POLIZEIOGD.532691","geometry":{"type":"Point","coordinates":[16.36965762547641,48.17904546586222]},"geometry_name":"SHAPE","properties":{"NAME":"Stadtpolizeikommando Favoriten (10.Bezirk)","ADRESSE":"10., Van-der-Nüll-Gasse 11","SE_SDO_ROWID":532691,"SE_ANNO_CAD_DATA":null,"WEBLINK1":"http://www.polizei.gv.at/"}},{"type":"Feature","id":"POLIZEIOGD.532701","geometry":{"type":"Point","coordinates":[16.393405242422983,48.19654811583286]},"geometry_name":"SHAPE","properties":{"NAME":"Stadtpolizeikommando Landstraße (3.Bezirk)","ADRESSE":"3., Juchgasse 19","SE_SDO_ROWID":532701,"SE_ANNO_CAD_DATA":null,"WEBLINK1":"http://www.polizei.gv.at/"}},{"type":"Feature","id":"POLIZEIOGD.532719","geometry":{"type":"Point","coordinates":[16.36947677563747,48.233976175399945]},"geometry_name":"SHAPE","properties":{"NAME":"Stadtpolizeikommando Brigittenau (2.u.20.Bezirk)","ADRESSE":"20., Pappenheimgasse 33","SE_SDO_ROWID":532719,"SE_ANNO_CAD_DATA":null,"WEBLINK1":"http://www.polizei.gv.at/"}},{"type":"Feature","id":"POLIZEIOGD.532727","geometry":{"type":"Point","coordinates":[16.39769040831295,48.260294917458744]},"geometry_name":"SHAPE","properties":{"NAME":"Stadtpolizeikommando Floridsdorf (21.Bezirk)","ADRESSE":"21., Hermann-Bahr-Straße 3","SE_SDO_ROWID":532727,"SE_ANNO_CAD_DATA":null,"WEBLINK1":"http://www.polizei.gv.at/"}},{"type":"Feature","id":"POLIZEIOGD.532739","geometry":{"type":"Point","coordinates":[16.32887943493207,48.182577663574286]},"geometry_name":"SHAPE","properties":{"NAME":"Stadtpolizeikommando Meidling (12.u.13.Bezirk)","ADRESSE":"12., Hufelandgasse 4","SE_SDO_ROWID":532739,"SE_ANNO_CAD_DATA":null,"WEBLINK1":"http://www.polizei.gv.at/"}},{"type":"Feature","id":"POLIZEIOGD.532741","geometry":{"type":"Point","coordinates":[16.33246594229112,48.1973940838256]},"geometry_name":"SHAPE","properties":{"NAME":"Stadtpolizeikommando Fünfhaus (14.u.15.Bezirk)","ADRESSE":"15., Tannengasse 6-10","SE_SDO_ROWID":532741,"SE_ANNO_CAD_DATA":null,"WEBLINK1":"http://www.polizei.gv.at/"}}],"crs":{"type":"name","properties":{"name":"urn:ogc:def:crs:EPSG::4326"}}}